[{
  "_id": {
    "$oid": "667910e6ff420002d6dd3be5"
  },
  "City": "Abohar",
  "Lat": 30.144533,
  "Long": 74.19552,
  "country": "India",
  "State": "Punjab"
},
{
  "_id": {
    "$oid": "667910e6ff420002d6dd3be6"
  },
  "City": "Adilabad",
  "Lat": 19.4,
  "Long": 78.31,
  "country": "India",
  "State": "Telangana"
},
{
  "_id": {
    "$oid": "667910e6ff420002d6dd3be7"
  },
  "City": "Agartala",
  "Lat": 23.836049,
  "Long": 91.279386,
  "country": "India",
  "State": "Tripura"
},
{
  "_id": {
    "$oid": "667910e6ff420002d6dd3be8"
  },
  "City": "Agra",
  "Lat": 27.187935,
  "Long": 78.003944,
  "country": "India",
  "State": "Uttar Pradesh"
},
{
  "_id": {
    "$oid": "667910e6ff420002d6dd3be9"
  },
  "City": "Ahmadnagar",
  "Lat": 19.094571,
  "Long": 74.738432,
  "country": "India",
  "State": "Maharashtra"
},
{
  "_id": {
    "$oid": "667910e6ff420002d6dd3bea"
  },
  "City": "Ahmedabad",
  "Lat": 23.025793,
  "Long": 72.587265,
  "country": "India",
  "State": "Gujarat"
},
{
  "_id": {
    "$oid": "667910e6ff420002d6dd3beb"
  },
  "City": "Aizawl  ",
  "Lat": 23.736701,
  "Long": 92.714596,
  "country": "India",
  "State": "Mizoram"
},
{
  "_id": {
    "$oid": "667910e6ff420002d6dd3bec"
  },
  "City": "Ajmer",
  "Lat": 26.452103,
  "Long": 74.638667,
  "country": "India",
  "State": "Rajasthan"
},
{
  "_id": {
    "$oid": "667910e6ff420002d6dd3bed"
  },
  "City": "Akola",
  "Lat": 20.709569,
  "Long": 76.998103,
  "country": "India",
  "State": "Maharashtra"
},
{
  "_id": {
    "$oid": "667910e6ff420002d6dd3bee"
  },
  "City": "Alappuzha",
  "Lat": 9.494647,
  "Long": 76.331108,
  "country": "India",
  "State": "Kerala"
},
{
  "_id": {
    "$oid": "667910e6ff420002d6dd3bef"
  },
  "City": "Aligarh",
  "Lat": 27.881453,
  "Long": 78.07464,
  "country": "India",
  "State": "Uttar Pradesh"
},
{
  "_id": {
    "$oid": "667910e6ff420002d6dd3bf0"
  },
  "City": "Alipurduar",
  "Lat": 26.4835,
  "Long": 89.522855,
  "country": "India",
  "State": "West Bengal"
},
{
  "_id": {
    "$oid": "667910e6ff420002d6dd3bf1"
  },
  "City": "Allahabad",
  "Lat": 25.44478,
  "Long": 81.843217,
  "country": "India",
  "State": "Uttar Pradesh"
},
{
  "_id": {
    "$oid": "667910e6ff420002d6dd3bf2"
  },
  "City": "Alwar",
  "Lat": 27.566291,
  "Long": 76.610202,
  "country": "India",
  "State": "Rajasthan"
},
{
  "_id": {
    "$oid": "667910e6ff420002d6dd3bf3"
  },
  "City": "Ambala",
  "Lat": 30.360993,
  "Long": 76.797819,
  "country": "India",
  "State": "Haryana"
},
{
  "_id": {
    "$oid": "667910e6ff420002d6dd3bf4"
  },
  "City": "Amaravati",
  "Lat": 20.933272,
  "Long": 77.75152,
  "country": "India",
  "State": "Maharashtra"
},
{
  "_id": {
    "$oid": "667910e6ff420002d6dd3bf5"
  },
  "City": "Amritsar",
  "Lat": 31.622337,
  "Long": 74.875335,
  "country": "India",
  "State": "Punjab"
},
{
  "_id": {
    "$oid": "667910e6ff420002d6dd3bf6"
  },
  "City": "Asansol",
  "Lat": 23.683333,
  "Long": 86.983333,
  "country": "India",
  "State": "West Bengal"
},
{
  "_id": {
    "$oid": "667910e6ff420002d6dd3bf7"
  },
  "City": "Aurangabad",
  "Lat": 19.880943,
  "Long": 75.346739,
  "country": "India",
  "State": "Maharashtra"
},
{
  "_id": {
    "$oid": "667910e6ff420002d6dd3bf8"
  },
  "City": "Aurangabad",
  "Lat": 24.752037,
  "Long": 84.374202,
  "country": "India",
  "State": "Bihar"
},
{
  "_id": {
    "$oid": "667910e6ff420002d6dd3bf9"
  },
  "City": "Bakshpur",
  "Lat": 25.894283,
  "Long": 80.792104,
  "country": "India",
  "State": "Uttar Pradesh"
},
{
  "_id": {
    "$oid": "667910e6ff420002d6dd3bfa"
  },
  "City": "Bamanpuri",
  "Lat": 28.804495,
  "Long": 79.040305,
  "country": "India",
  "State": "Uttar Pradesh"
},
{
  "_id": {
    "$oid": "667910e6ff420002d6dd3bfb"
  },
  "City": "Baramula",
  "Lat": 34.209004,
  "Long": 74.342853,
  "country": "India",
  "State": "Jammu and Kashmir"
},
{
  "_id": {
    "$oid": "667910e6ff420002d6dd3bfc"
  },
  "City": "Barddhaman",
  "Lat": 23.255716,
  "Long": 87.856906,
  "country": "India",
  "State": "West Bengal"
},
{
  "_id": {
    "$oid": "667910e6ff420002d6dd3bfd"
  },
  "City": "Bareilly",
  "Lat": 28.347023,
  "Long": 79.421934,
  "country": "India",
  "State": "Uttar Pradesh"
},
{
  "_id": {
    "$oid": "667910e6ff420002d6dd3bfe"
  },
  "City": "Belgaum",
  "Lat": 15.862643,
  "Long": 74.508534,
  "country": "India",
  "State": "Karnataka"
},
{
  "_id": {
    "$oid": "667910e6ff420002d6dd3bff"
  },
  "City": "Bellary",
  "Lat": 15.142049,
  "Long": 76.92398,
  "country": "India",
  "State": "Karnataka"
},
{
  "_id": {
    "$oid": "667910e6ff420002d6dd3c00"
  },
  "City": "Bengaluru",
  "Lat": 12.977063,
  "Long": 77.587106,
  "country": "India",
  "State": "Karnataka"
},
{
  "_id": {
    "$oid": "667910e6ff420002d6dd3c01"
  },
  "City": "Bhagalpur",
  "Lat": 25.244462,
  "Long": 86.971832,
  "country": "India",
  "State": "Bihar"
},
{
  "_id": {
    "$oid": "667910e6ff420002d6dd3c02"
  },
  "City": "Bharatpur",
  "Lat": 27.215251,
  "Long": 77.492786,
  "country": "India",
  "State": "Rajasthan"
},
{
  "_id": {
    "$oid": "667910e6ff420002d6dd3c03"
  },
  "City": "Bharauri",
  "Lat": 27.598203,
  "Long": 81.694709,
  "country": "India",
  "State": "Uttar Pradesh"
},
{
  "_id": {
    "$oid": "667910e6ff420002d6dd3c04"
  },
  "City": "Bhatpara",
  "Lat": 22.866431,
  "Long": 88.401129,
  "country": "India",
  "State": "West Bengal"
},
{
  "_id": {
    "$oid": "667910e6ff420002d6dd3c05"
  },
  "City": "Bhavnagar",
  "Lat": 21.774455,
  "Long": 72.152496,
  "country": "India",
  "State": "Gujarat"
},
{
  "_id": {
    "$oid": "667910e6ff420002d6dd3c06"
  },
  "City": "Bhilai",
  "Lat": 21.209188,
  "Long": 81.428497,
  "country": "India",
  "State": "Chhattisgarh"
},
{
  "_id": {
    "$oid": "667910e6ff420002d6dd3c07"
  },
  "City": "Bhilwara",
  "Lat": 25.347071,
  "Long": 74.640812,
  "country": "India",
  "State": "Rajasthan"
},
{
  "_id": {
    "$oid": "667910e6ff420002d6dd3c08"
  },
  "City": "Bhiwandi",
  "Lat": 19.300229,
  "Long": 73.058813,
  "country": "India",
  "State": "Maharashtra"
},
{
  "_id": {
    "$oid": "667910e6ff420002d6dd3c09"
  },
  "City": "Bhiwani",
  "Lat": 28.793044,
  "Long": 76.13968,
  "country": "India",
  "State": "Haryana"
},
{
  "_id": {
    "$oid": "667910e6ff420002d6dd3c0a"
  },
  "City": "Bhopal ",
  "Lat": 23.254688,
  "Long": 77.402892,
  "country": "India",
  "State": "Madhya Pradesh"
},
{
  "_id": {
    "$oid": "667910e6ff420002d6dd3c0b"
  },
  "City": "Bhubaneshwar",
  "Lat": 20.272411,
  "Long": 85.833853,
  "country": "India",
  "State": "Odisha"
},
{
  "_id": {
    "$oid": "667910e6ff420002d6dd3c0c"
  },
  "City": "Bhuj",
  "Lat": 23.253972,
  "Long": 69.669281,
  "country": "India",
  "State": "Gujarat"
},
{
  "_id": {
    "$oid": "667910e6ff420002d6dd3c0d"
  },
  "City": "Bhusaval",
  "Lat": 21.043649,
  "Long": 75.785058,
  "country": "India",
  "State": "Maharashtra"
},
{
  "_id": {
    "$oid": "667910e6ff420002d6dd3c0e"
  },
  "City": "Bidar",
  "Lat": 17.913309,
  "Long": 77.530105,
  "country": "India",
  "State": "Karnataka"
},
{
  "_id": {
    "$oid": "667910e6ff420002d6dd3c0f"
  },
  "City": "Bijapur",
  "Lat": 16.827715,
  "Long": 75.718988,
  "country": "India",
  "State": "Karnataka"
},
{
  "_id": {
    "$oid": "667910e6ff420002d6dd3c10"
  },
  "City": "Bikaner",
  "Lat": 28.017623,
  "Long": 73.314955,
  "country": "India",
  "State": "Rajasthan"
},
{
  "_id": {
    "$oid": "667910e6ff420002d6dd3c11"
  },
  "City": "Bilaspur",
  "Lat": 22.080046,
  "Long": 82.155431,
  "country": "India",
  "State": "Chhattisgarh"
},
{
  "_id": {
    "$oid": "667910e6ff420002d6dd3c12"
  },
  "City": "Brahmapur",
  "Lat": 19.311514,
  "Long": 84.792903,
  "country": "India",
  "State": "Odisha"
},
{
  "_id": {
    "$oid": "667910e6ff420002d6dd3c13"
  },
  "City": "Budaun",
  "Lat": 28.038114,
  "Long": 79.126677,
  "country": "India",
  "State": "Uttar Pradesh"
},
{
  "_id": {
    "$oid": "667910e6ff420002d6dd3c14"
  },
  "City": "Bulandshahr",
  "Lat": 28.403922,
  "Long": 77.857731,
  "country": "India",
  "State": "Uttar Pradesh"
},
{
  "_id": {
    "$oid": "667910e6ff420002d6dd3c15"
  },
  "City": "Calicut",
  "Lat": 11.248016,
  "Long": 75.780402,
  "country": "India",
  "State": "Kerala"
},
{
  "_id": {
    "$oid": "667910e6ff420002d6dd3c16"
  },
  "City": "Chanda",
  "Lat": 19.950758,
  "Long": 79.295229,
  "country": "India",
  "State": "Maharashtra"
},
{
  "_id": {
    "$oid": "667910e6ff420002d6dd3c17"
  },
  "City": "Chandigarh ",
  "Lat": 30.736292,
  "Long": 76.788398,
  "country": "India",
  "State": "Chandigarh"
},
{
  "_id": {
    "$oid": "667910e6ff420002d6dd3c18"
  },
  "City": "Chennai",
  "Lat": 13.084622,
  "Long": 80.248357,
  "country": "India",
  "State": "Tamil Nadu "
},
{
  "_id": {
    "$oid": "667910e6ff420002d6dd3c19"
  },
  "City": "Chikka Mandya",
  "Lat": 12.545602,
  "Long": 76.895078,
  "country": "India",
  "State": "Karnataka"
},
{
  "_id": {
    "$oid": "667910e6ff420002d6dd3c1a"
  },
  "City": "Chirala",
  "Lat": 15.823849,
  "Long": 80.352187,
  "country": "India",
  "State": "Andhra Pradesh"
},
{
  "_id": {
    "$oid": "667910e6ff420002d6dd3c1b"
  },
  "City": "Coimbatore",
  "Lat": 11.005547,
  "Long": 76.966122,
  "country": "India",
  "State": "Tamil Nadu "
},
{
  "_id": {
    "$oid": "667910e6ff420002d6dd3c1c"
  },
  "City": "Cuddalore",
  "Lat": 11.746289,
  "Long": 79.764362,
  "country": "India",
  "State": "Tamil Nadu "
},
{
  "_id": {
    "$oid": "667910e6ff420002d6dd3c1d"
  },
  "City": "Cuttack",
  "Lat": 20.522922,
  "Long": 85.78813,
  "country": "India",
  "State": "Odisha"
},
{
  "_id": {
    "$oid": "667910e6ff420002d6dd3c1e"
  },
  "City": "Daman",
  "Lat": 20.414315,
  "Long": 72.83236,
  "country": "India",
  "State": "Daman and Diu"
},
{
  "_id": {
    "$oid": "667910e6ff420002d6dd3c1f"
  },
  "City": "Davangere",
  "Lat": 14.469237,
  "Long": 75.92375,
  "country": "India",
  "State": "Karnataka"
},
{
  "_id": {
    "$oid": "667910e6ff420002d6dd3c20"
  },
  "City": "DehraDun",
  "Lat": 30.324427,
  "Long": 78.033922,
  "country": "India",
  "State": "Uttarakhand"
},
{
  "_id": {
    "$oid": "667910e6ff420002d6dd3c21"
  },
  "City": "Delhi",
  "Lat": 28.651952,
  "Long": 77.231495,
  "country": "India",
  "State": "Delhi"
},
{
  "_id": {
    "$oid": "667910e6ff420002d6dd3c22"
  },
  "City": "Dhanbad",
  "Lat": 23.801988,
  "Long": 86.443244,
  "country": "India",
  "State": "Jharkhand"
},
{
  "_id": {
    "$oid": "667910e6ff420002d6dd3c23"
  },
  "City": "Dibrugarh",
  "Lat": 27.479888,
  "Long": 94.90837,
  "country": "India",
  "State": "Assam"
},
{
  "_id": {
    "$oid": "667910e6ff420002d6dd3c24"
  },
  "City": "Dindigul",
  "Lat": 10.362853,
  "Long": 77.975827,
  "country": "India",
  "State": "Tamil Nadu "
},
{
  "_id": {
    "$oid": "667910e6ff420002d6dd3c25"
  },
  "City": "Dispur",
  "Lat": 26.135638,
  "Long": 91.800688,
  "country": "India",
  "State": "Assam"
},
{
  "_id": {
    "$oid": "667910e6ff420002d6dd3c26"
  },
  "City": "Diu",
  "Lat": 20.715115,
  "Long": 70.987952,
  "country": "India",
  "State": "Daman and Diu"
},
{
  "_id": {
    "$oid": "667910e6ff420002d6dd3c27"
  },
  "City": "Faridabad",
  "Lat": 28.411236,
  "Long": 77.313162,
  "country": "India",
  "State": "Haryana"
},
{
  "_id": {
    "$oid": "667910e6ff420002d6dd3c28"
  },
  "City": "Firozabad",
  "Lat": 27.150917,
  "Long": 78.397808,
  "country": "India",
  "State": "Uttar Pradesh"
},
{
  "_id": {
    "$oid": "667910e6ff420002d6dd3c29"
  },
  "City": "Fyzabad",
  "Lat": 26.775486,
  "Long": 82.150182,
  "country": "India",
  "State": "Uttar Pradesh"
},
{
  "_id": {
    "$oid": "667910e6ff420002d6dd3c2a"
  },
  "City": "Gangtok",
  "Lat": 27.325739,
  "Long": 88.612155,
  "country": "India",
  "State": "Sikkim"
},
{
  "_id": {
    "$oid": "667910e6ff420002d6dd3c2b"
  },
  "City": "Gaya",
  "Lat": 24.796858,
  "Long": 85.003852,
  "country": "India",
  "State": "Bihar"
},
{
  "_id": {
    "$oid": "667910e6ff420002d6dd3c2c"
  },
  "City": "Ghandinagar",
  "Lat": 23.216667,
  "Long": 72.683333,
  "country": "India",
  "State": "Gujarat"
},
{
  "_id": {
    "$oid": "667910e6ff420002d6dd3c2d"
  },
  "City": "Ghaziabad",
  "Lat": 28.665353,
  "Long": 77.439148,
  "country": "India",
  "State": "Uttar Pradesh"
},
{
  "_id": {
    "$oid": "667910e6ff420002d6dd3c2e"
  },
  "City": "Gopalpur",
  "Lat": 26.735389,
  "Long": 83.38064,
  "country": "India",
  "State": "Uttar Pradesh"
},
{
  "_id": {
    "$oid": "667910e6ff420002d6dd3c2f"
  },
  "City": "Gulbarga",
  "Lat": 17.335827,
  "Long": 76.83757,
  "country": "India",
  "State": "Karnataka"
},
{
  "_id": {
    "$oid": "667910e6ff420002d6dd3c30"
  },
  "City": "Guntur",
  "Lat": 16.299737,
  "Long": 80.457293,
  "country": "India",
  "State": "Andhra Pradesh"
},
{
  "_id": {
    "$oid": "667910e6ff420002d6dd3c31"
  },
  "City": "Gurugram",
  "Lat": 28.460105,
  "Long": 77.026352,
  "country": "India",
  "State": "Haryana"
},
{
  "_id": {
    "$oid": "667910e6ff420002d6dd3c32"
  },
  "City": "Guwahati",
  "Lat": 26.176076,
  "Long": 91.762932,
  "country": "India",
  "State": "Assam"
},
{
  "_id": {
    "$oid": "667910e6ff420002d6dd3c33"
  },
  "City": "Gwalior",
  "Lat": 26.229825,
  "Long": 78.173369,
  "country": "India",
  "State": "Madhya Pradesh"
},
{
  "_id": {
    "$oid": "667910e6ff420002d6dd3c34"
  },
  "City": "Haldia",
  "Lat": 22.025278,
  "Long": 88.058333,
  "country": "India",
  "State": "West Bengal"
},
{
  "_id": {
    "$oid": "667910e6ff420002d6dd3c35"
  },
  "City": "Haora",
  "Lat": 22.576882,
  "Long": 88.318566,
  "country": "India",
  "State": "West Bengal"
},
{
  "_id": {
    "$oid": "667910e6ff420002d6dd3c36"
  },
  "City": "Hapur",
  "Lat": 28.729845,
  "Long": 77.780681,
  "country": "India",
  "State": "Uttar Pradesh"
},
{
  "_id": {
    "$oid": "667910e6ff420002d6dd3c37"
  },
  "City": "Haripur",
  "Lat": 31.463218,
  "Long": 75.986418,
  "country": "India",
  "State": "Punjab"
},
{
  "_id": {
    "$oid": "667910e6ff420002d6dd3c38"
  },
  "City": "Hata",
  "Lat": 27.592698,
  "Long": 78.013843,
  "country": "India",
  "State": "Uttar Pradesh"
},
{
  "_id": {
    "$oid": "667910e6ff420002d6dd3c39"
  },
  "City": "Hindupur",
  "Lat": 13.828065,
  "Long": 77.491425,
  "country": "India",
  "State": "Andhra Pradesh"
},
{
  "_id": {
    "$oid": "667910e6ff420002d6dd3c3a"
  },
  "City": "Hisar",
  "Lat": 29.153938,
  "Long": 75.722944,
  "country": "India",
  "State": "Haryana"
},
{
  "_id": {
    "$oid": "667910e6ff420002d6dd3c3b"
  },
  "City": "Hospet",
  "Lat": 15.269537,
  "Long": 76.387103,
  "country": "India",
  "State": "Karnataka"
},
{
  "_id": {
    "$oid": "667910e6ff420002d6dd3c3c"
  },
  "City": "Hubli",
  "Lat": 15.349955,
  "Long": 75.138619,
  "country": "India",
  "State": "Karnataka"
},
{
  "_id": {
    "$oid": "667910e6ff420002d6dd3c3d"
  },
  "City": "Hyderabad",
  "Lat": 17.384052,
  "Long": 78.456355,
  "country": "India",
  "State": "Telangana"
},
{
  "_id": {
    "$oid": "667910e6ff420002d6dd3c3e"
  },
  "City": "Imphal",
  "Lat": 24.808053,
  "Long": 93.944203,
  "country": "India",
  "State": "Manipur"
},
{
  "_id": {
    "$oid": "667910e6ff420002d6dd3c3f"
  },
  "City": "Indore",
  "Lat": 22.717736,
  "Long": 75.85859,
  "country": "India",
  "State": "Madhya Pradesh"
},
{
  "_id": {
    "$oid": "667910e6ff420002d6dd3c40"
  },
  "City": "Itanagar",
  "Lat": 27.102349,
  "Long": 93.692047,
  "country": "India",
  "State": "Arunachal Pradesh"
},
{
  "_id": {
    "$oid": "667910e6ff420002d6dd3c41"
  },
  "City": "Jabalpur",
  "Lat": 23.174495,
  "Long": 79.935903,
  "country": "India",
  "State": "Madhya Pradesh"
},
{
  "_id": {
    "$oid": "667910e6ff420002d6dd3c42"
  },
  "City": "Jaipur",
  "Lat": 26.913312,
  "Long": 75.787872,
  "country": "India",
  "State": "Rajasthan"
},
{
  "_id": {
    "$oid": "667910e6ff420002d6dd3c43"
  },
  "City": "Jammu",
  "Lat": 32.735686,
  "Long": 74.869112,
  "country": "India",
  "State": "Jammu and Kashmir"
},
{
  "_id": {
    "$oid": "667910e6ff420002d6dd3c44"
  },
  "City": "Jamshedpur",
  "Lat": 22.802776,
  "Long": 86.185448,
  "country": "India",
  "State": "Jharkhand"
},
{
  "_id": {
    "$oid": "667910e6ff420002d6dd3c45"
  },
  "City": "Jhansi",
  "Lat": 25.458872,
  "Long": 78.579943,
  "country": "India",
  "State": "Uttar Pradesh"
},
{
  "_id": {
    "$oid": "667910e6ff420002d6dd3c46"
  },
  "City": "Jodhpur",
  "Lat": 26.26841,
  "Long": 73.005943,
  "country": "India",
  "State": "Rajasthan"
},
{
  "_id": {
    "$oid": "667910e6ff420002d6dd3c47"
  },
  "City": "Jorhat",
  "Lat": 26.757509,
  "Long": 94.203055,
  "country": "India",
  "State": "Assam"
},
{
  "_id": {
    "$oid": "667910e6ff420002d6dd3c48"
  },
  "City": "Kagaznagar",
  "Lat": 19.331589,
  "Long": 79.466051,
  "country": "India",
  "State": "Andhra Pradesh"
},
{
  "_id": {
    "$oid": "667910e6ff420002d6dd3c49"
  },
  "City": "Kakinada",
  "Lat": 16.960361,
  "Long": 82.238086,
  "country": "India",
  "State": "Andhra Pradesh"
},
{
  "_id": {
    "$oid": "667910e6ff420002d6dd3c4a"
  },
  "City": "Kalyan",
  "Lat": 19.243703,
  "Long": 73.135537,
  "country": "India",
  "State": "Maharashtra"
},
{
  "_id": {
    "$oid": "667910e6ff420002d6dd3c4b"
  },
  "City": "Karimnagar",
  "Lat": 18.436738,
  "Long": 79.13222,
  "country": "India",
  "State": "Telangana"
},
{
  "_id": {
    "$oid": "667910e6ff420002d6dd3c4c"
  },
  "City": "Karnal",
  "Lat": 29.691971,
  "Long": 76.984483,
  "country": "India",
  "State": "Haryana"
},
{
  "_id": {
    "$oid": "667910e6ff420002d6dd3c4d"
  },
  "City": "Karur",
  "Lat": 10.960277,
  "Long": 78.076753,
  "country": "India",
  "State": "Tamil Nadu "
},
{
  "_id": {
    "$oid": "667910e6ff420002d6dd3c4e"
  },
  "City": "Kavaratti",
  "Lat": 10.566667,
  "Long": 72.616667,
  "country": "India",
  "State": "Lakshadweep"
},
{
  "_id": {
    "$oid": "667910e6ff420002d6dd3c4f"
  },
  "City": "Khammam",
  "Lat": 17.247672,
  "Long": 80.143682,
  "country": "India",
  "State": "Telangana"
},
{
  "_id": {
    "$oid": "667910e6ff420002d6dd3c50"
  },
  "City": "Khanapur",
  "Lat": 21.273716,
  "Long": 76.117376,
  "country": "India",
  "State": "Maharashtra"
},
{
  "_id": {
    "$oid": "667910e6ff420002d6dd3c51"
  },
  "City": "Kochi",
  "Lat": 9.947743,
  "Long": 76.253802,
  "country": "India",
  "State": "Kerala"
},
{
  "_id": {
    "$oid": "667910e6ff420002d6dd3c52"
  },
  "City": "Kohima",
  "Lat": 25.674673,
  "Long": 94.110988,
  "country": "India",
  "State": "Nagaland"
},
{
  "_id": {
    "$oid": "667910e6ff420002d6dd3c53"
  },
  "City": "Kolar",
  "Lat": 13.137679,
  "Long": 78.129989,
  "country": "India",
  "State": "Karnataka"
},
{
  "_id": {
    "$oid": "667910e6ff420002d6dd3c54"
  },
  "City": "Kolhapur",
  "Lat": 16.695633,
  "Long": 74.231669,
  "country": "India",
  "State": "Maharashtra"
},
{
  "_id": {
    "$oid": "667910e6ff420002d6dd3c55"
  },
  "City": "Kolkata ",
  "Lat": 22.562627,
  "Long": 88.363044,
  "country": "India",
  "State": "West Bengal"
},
{
  "_id": {
    "$oid": "667910e6ff420002d6dd3c56"
  },
  "City": "Kollam",
  "Lat": 8.881131,
  "Long": 76.584694,
  "country": "India",
  "State": "Kerala"
},
{
  "_id": {
    "$oid": "667910e6ff420002d6dd3c57"
  },
  "City": "Kota",
  "Lat": 25.182544,
  "Long": 75.839065,
  "country": "India",
  "State": "Rajasthan"
},
{
  "_id": {
    "$oid": "667910e6ff420002d6dd3c58"
  },
  "City": "Krishnanagar",
  "Lat": 23.405761,
  "Long": 88.490733,
  "country": "India",
  "State": "West Bengal"
},
{
  "_id": {
    "$oid": "667910e6ff420002d6dd3c59"
  },
  "City": "Krishnapuram",
  "Lat": 12.869617,
  "Long": 79.719469,
  "country": "India",
  "State": "Tamil Nadu "
},
{
  "_id": {
    "$oid": "667910e6ff420002d6dd3c5a"
  },
  "City": "Kumbakonam",
  "Lat": 10.959789,
  "Long": 79.377472,
  "country": "India",
  "State": "Tamil Nadu "
},
{
  "_id": {
    "$oid": "667910e6ff420002d6dd3c5b"
  },
  "City": "Kurnool",
  "Lat": 15.828865,
  "Long": 78.036021,
  "country": "India",
  "State": "Andhra Pradesh"
},
{
  "_id": {
    "$oid": "667910e6ff420002d6dd3c5c"
  },
  "City": "Latur",
  "Lat": 18.399487,
  "Long": 76.584252,
  "country": "India",
  "State": "Maharashtra"
},
{
  "_id": {
    "$oid": "667910e6ff420002d6dd3c5d"
  },
  "City": "Lucknow",
  "Lat": 26.839281,
  "Long": 80.923133,
  "country": "India",
  "State": "Uttar Pradesh"
},
{
  "_id": {
    "$oid": "667910e6ff420002d6dd3c5e"
  },
  "City": "Ludhiana",
  "Lat": 30.912042,
  "Long": 75.853789,
  "country": "India",
  "State": "Punjab"
},
{
  "_id": {
    "$oid": "667910e6ff420002d6dd3c5f"
  },
  "City": "Machilipatnam",
  "Lat": 16.187466,
  "Long": 81.13888,
  "country": "India",
  "State": "Andhra Pradesh"
},
{
  "_id": {
    "$oid": "667910e6ff420002d6dd3c60"
  },
  "City": "Madurai",
  "Lat": 9.917347,
  "Long": 78.119622,
  "country": "India",
  "State": "Tamil Nadu "
},
{
  "_id": {
    "$oid": "667910e6ff420002d6dd3c61"
  },
  "City": "Mahabubnagar",
  "Lat": 16.75,
  "Long": 78,
  "country": "India",
  "State": "Telangana"
},
{
  "_id": {
    "$oid": "667910e6ff420002d6dd3c62"
  },
  "City": "Malegaon Camp",
  "Lat": 20.569974,
  "Long": 74.515415,
  "country": "India",
  "State": "Maharashtra"
},
{
  "_id": {
    "$oid": "667910e6ff420002d6dd3c63"
  },
  "City": "Mangalore",
  "Lat": 12.865371,
  "Long": 74.842432,
  "country": "India",
  "State": "Karnataka"
},
{
  "_id": {
    "$oid": "667910e6ff420002d6dd3c64"
  },
  "City": "Mathura",
  "Lat": 27.503501,
  "Long": 77.672145,
  "country": "India",
  "State": "Uttar Pradesh"
},
{
  "_id": {
    "$oid": "667910e6ff420002d6dd3c65"
  },
  "City": "Meerut",
  "Lat": 28.980018,
  "Long": 77.706356,
  "country": "India",
  "State": "Uttar Pradesh"
},
{
  "_id": {
    "$oid": "667910e6ff420002d6dd3c66"
  },
  "City": "Mirzapur",
  "Lat": 25.144902,
  "Long": 82.565335,
  "country": "India",
  "State": "Uttar Pradesh"
},
{
  "_id": {
    "$oid": "667910e6ff420002d6dd3c67"
  },
  "City": "Moradabad",
  "Lat": 28.838931,
  "Long": 78.776838,
  "country": "India",
  "State": "Uttar Pradesh"
},
{
  "_id": {
    "$oid": "667910e6ff420002d6dd3c68"
  },
  "City": "Mumbai",
  "Lat": 18.987807,
  "Long": 72.836447,
  "country": "India",
  "State": "Maharashtra"
},
{
  "_id": {
    "$oid": "667910e6ff420002d6dd3c69"
  },
  "City": "Muzaffarnagar",
  "Lat": 29.470914,
  "Long": 77.703324,
  "country": "India",
  "State": "Uttar Pradesh"
},
{
  "_id": {
    "$oid": "667910e6ff420002d6dd3c6a"
  },
  "City": "Muzaffarpur",
  "Lat": 26.122593,
  "Long": 85.390553,
  "country": "India",
  "State": "Bihar"
},
{
  "_id": {
    "$oid": "667910e6ff420002d6dd3c6b"
  },
  "City": "Mysore",
  "Lat": 12.292664,
  "Long": 76.638543,
  "country": "India",
  "State": "Karnataka"
},
{
  "_id": {
    "$oid": "667910e6ff420002d6dd3c6c"
  },
  "City": "Nagercoil",
  "Lat": 8.177313,
  "Long": 77.43437,
  "country": "India",
  "State": "Tamil Nadu "
},
{
  "_id": {
    "$oid": "667910e6ff420002d6dd3c6d"
  },
  "City": "Nalgonda",
  "Lat": 17.05,
  "Long": 79.27,
  "country": "India",
  "State": "Telangana"
},
{
  "_id": {
    "$oid": "667910e6ff420002d6dd3c6e"
  },
  "City": "Nanded",
  "Lat": 19.160227,
  "Long": 77.314971,
  "country": "India",
  "State": "Maharashtra"
},
{
  "_id": {
    "$oid": "667910e6ff420002d6dd3c6f"
  },
  "City": "Nandyal",
  "Lat": 15.477994,
  "Long": 78.483605,
  "country": "India",
  "State": "Andhra Pradesh"
},
{
  "_id": {
    "$oid": "667910e6ff420002d6dd3c70"
  },
  "City": "Nasik",
  "Lat": 19.999963,
  "Long": 73.776887,
  "country": "India",
  "State": "Maharashtra"
},
{
  "_id": {
    "$oid": "667910e6ff420002d6dd3c71"
  },
  "City": "Navsari",
  "Lat": 20.85,
  "Long": 72.916667,
  "country": "India",
  "State": "Gujarat"
},
{
  "_id": {
    "$oid": "667910e6ff420002d6dd3c72"
  },
  "City": "Nellore",
  "Lat": 14.449918,
  "Long": 79.986967,
  "country": "India",
  "State": "Andhra Pradesh"
},
{
  "_id": {
    "$oid": "667910e6ff420002d6dd3c73"
  },
  "City": "New Delhi",
  "Lat": 28.6,
  "Long": 77.2,
  "country": "India",
  "State": "Delhi"
},
{
  "_id": {
    "$oid": "667910e6ff420002d6dd3c74"
  },
  "City": "Nizamabad",
  "Lat": 18.673151,
  "Long": 78.10008,
  "country": "India",
  "State": "Telangana"
},
{
  "_id": {
    "$oid": "667910e6ff420002d6dd3c75"
  },
  "City": "Ongole",
  "Lat": 15.503565,
  "Long": 80.044541,
  "country": "India",
  "State": "Andhra Pradesh"
},
{
  "_id": {
    "$oid": "667910e6ff420002d6dd3c76"
  },
  "City": "Pali",
  "Lat": 25.775125,
  "Long": 73.320611,
  "country": "India",
  "State": "Rajasthan"
},
{
  "_id": {
    "$oid": "667910e6ff420002d6dd3c77"
  },
  "City": "Panaji",
  "Lat": 15.498289,
  "Long": 73.824541,
  "country": "India",
  "State": "Goa"
},
{
  "_id": {
    "$oid": "667910e6ff420002d6dd3c78"
  },
  "City": "Panchkula",
  "Lat": 30.691512,
  "Long": 76.853736,
  "country": "India",
  "State": "Haryana"
},
{
  "_id": {
    "$oid": "667910e6ff420002d6dd3c79"
  },
  "City": "Panipat",
  "Lat": 29.387471,
  "Long": 76.968246,
  "country": "India",
  "State": "Haryana"
},
{
  "_id": {
    "$oid": "667910e6ff420002d6dd3c7a"
  },
  "City": "Parbhani",
  "Lat": 19.268553,
  "Long": 76.770807,
  "country": "India",
  "State": "Maharashtra"
},
{
  "_id": {
    "$oid": "667910e6ff420002d6dd3c7b"
  },
  "City": "Pathankot",
  "Lat": 32.274842,
  "Long": 75.652865,
  "country": "India",
  "State": "Punjab"
},
{
  "_id": {
    "$oid": "667910e6ff420002d6dd3c7c"
  },
  "City": "Patiala",
  "Lat": 30.336245,
  "Long": 76.392199,
  "country": "India",
  "State": "Punjab"
},
{
  "_id": {
    "$oid": "667910e6ff420002d6dd3c7d"
  },
  "City": "Patna",
  "Lat": 25.615379,
  "Long": 85.101027,
  "country": "India",
  "State": "Bihar"
},
{
  "_id": {
    "$oid": "667910e6ff420002d6dd3c7e"
  },
  "City": "Pilibhit",
  "Lat": 28.631245,
  "Long": 79.804362,
  "country": "India",
  "State": "Uttar Pradesh"
},
{
  "_id": {
    "$oid": "667910e6ff420002d6dd3c7f"
  },
  "City": "Porbandar",
  "Lat": 21.641346,
  "Long": 69.600868,
  "country": "India",
  "State": "Gujarat"
},
{
  "_id": {
    "$oid": "667910e6ff420002d6dd3c80"
  },
  "City": "Port Blair",
  "Lat": 11.666667,
  "Long": 92.75,
  "country": "India",
  "State": "Andaman and Nicobar Islands"
},
{
  "_id": {
    "$oid": "667910e6ff420002d6dd3c81"
  },
  "City": "Proddatur",
  "Lat": 14.7502,
  "Long": 78.548129,
  "country": "India",
  "State": "Andhra Pradesh"
},
{
  "_id": {
    "$oid": "667910e6ff420002d6dd3c82"
  },
  "City": "Puducherry",
  "Lat": 11.933812,
  "Long": 79.829792,
  "country": "India",
  "State": "Puducherry"
},
{
  "_id": {
    "$oid": "667910e6ff420002d6dd3c83"
  },
  "City": "Pune",
  "Lat": 18.513271,
  "Long": 73.849852,
  "country": "India",
  "State": "Maharashtra"
},
{
  "_id": {
    "$oid": "667910e6ff420002d6dd3c84"
  },
  "City": "Puri",
  "Lat": 19.798254,
  "Long": 85.824938,
  "country": "India",
  "State": "Odisha"
},
{
  "_id": {
    "$oid": "667910e6ff420002d6dd3c85"
  },
  "City": "Purnea",
  "Lat": 25.776703,
  "Long": 87.473655,
  "country": "India",
  "State": "Bihar"
},
{
  "_id": {
    "$oid": "667910e6ff420002d6dd3c86"
  },
  "City": "Raichur",
  "Lat": 16.205459,
  "Long": 77.35567,
  "country": "India",
  "State": "Karnataka"
},
{
  "_id": {
    "$oid": "667910e6ff420002d6dd3c87"
  },
  "City": "Raipur",
  "Lat": 21.233333,
  "Long": 81.633333,
  "country": "India",
  "State": "Chhattisgarh"
},
{
  "_id": {
    "$oid": "667910e6ff420002d6dd3c88"
  },
  "City": "Rajahmundry",
  "Lat": 17.005171,
  "Long": 81.777839,
  "country": "India",
  "State": "Andhra Pradesh"
},
{
  "_id": {
    "$oid": "667910e6ff420002d6dd3c89"
  },
  "City": "Rajapalaiyam",
  "Lat": 9.451111,
  "Long": 77.556121,
  "country": "India",
  "State": "Tamil Nadu "
},
{
  "_id": {
    "$oid": "667910e6ff420002d6dd3c8a"
  },
  "City": "Rajkot",
  "Lat": 22.291606,
  "Long": 70.793217,
  "country": "India",
  "State": "Gujarat"
},
{
  "_id": {
    "$oid": "667910e6ff420002d6dd3c8b"
  },
  "City": "Ramagundam",
  "Lat": 18.45,
  "Long": 79.28,
  "country": "India",
  "State": "Telangana"
},
{
  "_id": {
    "$oid": "667910e6ff420002d6dd3c8c"
  },
  "City": "Rampura",
  "Lat": 26.884682,
  "Long": 75.789336,
  "country": "India",
  "State": "Rajasthan"
},
{
  "_id": {
    "$oid": "667910e6ff420002d6dd3c8d"
  },
  "City": "Ranchi",
  "Lat": 23.347768,
  "Long": 85.338564,
  "country": "India",
  "State": "Jharkhand"
},
{
  "_id": {
    "$oid": "667910e6ff420002d6dd3c8e"
  },
  "City": "Ratlam",
  "Lat": 23.330331,
  "Long": 75.040315,
  "country": "India",
  "State": "Madhya Pradesh"
},
{
  "_id": {
    "$oid": "667910e6ff420002d6dd3c8f"
  },
  "City": "Raurkela",
  "Lat": 22.224964,
  "Long": 84.864143,
  "country": "India",
  "State": "Odisha"
},
{
  "_id": {
    "$oid": "667910e6ff420002d6dd3c90"
  },
  "City": "Rohtak",
  "Lat": 28.894473,
  "Long": 76.589166,
  "country": "India",
  "State": "Haryana"
},
{
  "_id": {
    "$oid": "667910e6ff420002d6dd3c91"
  },
  "City": "Saharanpur",
  "Lat": 29.967896,
  "Long": 77.545221,
  "country": "India",
  "State": "Uttar Pradesh"
},
{
  "_id": {
    "$oid": "667910e6ff420002d6dd3c92"
  },
  "City": "Saidapur",
  "Lat": 27.598784,
  "Long": 80.75089,
  "country": "India",
  "State": "Uttar Pradesh"
},
{
  "_id": {
    "$oid": "667910e6ff420002d6dd3c93"
  },
  "City": "Saidpur",
  "Lat": 34.318174,
  "Long": 74.457093,
  "country": "India",
  "State": "Jammu and Kashmir"
},
{
  "_id": {
    "$oid": "667910e6ff420002d6dd3c94"
  },
  "City": "Salem",
  "Lat": 11.651165,
  "Long": 78.158672,
  "country": "India",
  "State": "Tamil Nadu "
},
{
  "_id": {
    "$oid": "667910e6ff420002d6dd3c95"
  },
  "City": "Samlaipadar",
  "Lat": 21.478072,
  "Long": 83.990505,
  "country": "India",
  "State": "Odisha"
},
{
  "_id": {
    "$oid": "667910e6ff420002d6dd3c96"
  },
  "City": "Sangli",
  "Lat": 16.856777,
  "Long": 74.569196,
  "country": "India",
  "State": "Maharashtra"
},
{
  "_id": {
    "$oid": "667910e6ff420002d6dd3c97"
  },
  "City": "Saugor",
  "Lat": 23.838766,
  "Long": 78.738738,
  "country": "India",
  "State": "Madhya Pradesh"
},
{
  "_id": {
    "$oid": "667910e6ff420002d6dd3c98"
  },
  "City": "Shahbazpur",
  "Lat": 27.874116,
  "Long": 79.879327,
  "country": "India",
  "State": "Uttar Pradesh"
},
{
  "_id": {
    "$oid": "667910e6ff420002d6dd3c99"
  },
  "City": "Shiliguri",
  "Lat": 26.710035,
  "Long": 88.428512,
  "country": "India",
  "State": "West Bengal"
},
{
  "_id": {
    "$oid": "667910e6ff420002d6dd3c9a"
  },
  "City": "Shillong ",
  "Lat": 25.573987,
  "Long": 91.896807,
  "country": "India",
  "State": "Meghalaya"
},
{
  "_id": {
    "$oid": "667910e6ff420002d6dd3c9b"
  },
  "City": "Shimla",
  "Lat": 31.104423,
  "Long": 77.166623,
  "country": "India",
  "State": "Himachal Pradesh"
},
{
  "_id": {
    "$oid": "667910e6ff420002d6dd3c9c"
  },
  "City": "Shimoga",
  "Lat": 13.932424,
  "Long": 75.572555,
  "country": "India",
  "State": "Karnataka"
},
{
  "_id": {
    "$oid": "667910e6ff420002d6dd3c9d"
  },
  "City": "Sikar",
  "Lat": 27.614778,
  "Long": 75.138671,
  "country": "India",
  "State": "Rajasthan"
},
{
  "_id": {
    "$oid": "667910e6ff420002d6dd3c9e"
  },
  "City": "Silchar",
  "Lat": 24.827327,
  "Long": 92.797868,
  "country": "India",
  "State": "Assam"
},
{
  "_id": {
    "$oid": "667910e6ff420002d6dd3c9f"
  },
  "City": "Silvassa",
  "Lat": 20.273855,
  "Long": 72.996728,
  "country": "India",
  "State": "Dadra and Nagar Haveli"
},
{
  "_id": {
    "$oid": "667910e6ff420002d6dd3ca0"
  },
  "City": "Sirsa",
  "Lat": 29.534893,
  "Long": 75.028981,
  "country": "India",
  "State": "Haryana"
},
{
  "_id": {
    "$oid": "667910e6ff420002d6dd3ca1"
  },
  "City": "Sonipat",
  "Lat": 28.994778,
  "Long": 77.019375,
  "country": "India",
  "State": "Haryana"
},
{
  "_id": {
    "$oid": "667910e6ff420002d6dd3ca2"
  },
  "City": "Srinagar",
  "Lat": 34.085652,
  "Long": 74.805553,
  "country": "India",
  "State": "Jammu and Kashmir"
},
{
  "_id": {
    "$oid": "667910e6ff420002d6dd3ca3"
  },
  "City": "Surat",
  "Lat": 21.195944,
  "Long": 72.830232,
  "country": "India",
  "State": "Gujarat"
},
{
  "_id": {
    "$oid": "667910e6ff420002d6dd3ca4"
  },
  "City": "Tezpur",
  "Lat": 26.633333,
  "Long": 92.8,
  "country": "India",
  "State": "Assam"
},
{
  "_id": {
    "$oid": "667910e6ff420002d6dd3ca5"
  },
  "City": "Thanjavur",
  "Lat": 10.785233,
  "Long": 79.139093,
  "country": "India",
  "State": "Tamil Nadu "
},
{
  "_id": {
    "$oid": "667910e6ff420002d6dd3ca6"
  },
  "City": "Tharati Etawah",
  "Lat": 26.758236,
  "Long": 79.014875,
  "country": "India",
  "State": "Uttar Pradesh"
},
{
  "_id": {
    "$oid": "667910e6ff420002d6dd3ca7"
  },
  "City": "Thiruvananthapuram",
  "Lat": 8.485498,
  "Long": 76.949238,
  "country": "India",
  "State": "Kerala"
},
{
  "_id": {
    "$oid": "667910e6ff420002d6dd3ca8"
  },
  "City": "Tiruchchirappalli",
  "Lat": 10.815499,
  "Long": 78.696513,
  "country": "India",
  "State": "Tamil Nadu "
},
{
  "_id": {
    "$oid": "667910e6ff420002d6dd3ca9"
  },
  "City": "Tirunelveli",
  "Lat": 8.725181,
  "Long": 77.684519,
  "country": "India",
  "State": "Tamil Nadu "
},
{
  "_id": {
    "$oid": "667910e6ff420002d6dd3caa"
  },
  "City": "Tirupati",
  "Lat": 13.635505,
  "Long": 79.419888,
  "country": "India",
  "State": "Andhra Pradesh"
},
{
  "_id": {
    "$oid": "667910e6ff420002d6dd3cab"
  },
  "City": "Tiruvannamalai",
  "Lat": 12.230204,
  "Long": 79.072954,
  "country": "India",
  "State": "Tamil Nadu "
},
{
  "_id": {
    "$oid": "667910e6ff420002d6dd3cac"
  },
  "City": "Tonk",
  "Lat": 26.168672,
  "Long": 75.786111,
  "country": "India",
  "State": "Rajasthan"
},
{
  "_id": {
    "$oid": "667910e6ff420002d6dd3cad"
  },
  "City": "Tuticorin",
  "Lat": 8.805038,
  "Long": 78.151884,
  "country": "India",
  "State": "Tamil Nadu "
},
{
  "_id": {
    "$oid": "667910e6ff420002d6dd3cae"
  },
  "City": "Udaipur",
  "Lat": 24.57951,
  "Long": 73.690508,
  "country": "India",
  "State": "Rajasthan"
},
{
  "_id": {
    "$oid": "667910e6ff420002d6dd3caf"
  },
  "City": "Ujjain",
  "Lat": 23.182387,
  "Long": 75.776433,
  "country": "India",
  "State": "Madhya Pradesh"
},
{
  "_id": {
    "$oid": "667910e6ff420002d6dd3cb0"
  },
  "City": "Vadodara",
  "Lat": 22.299405,
  "Long": 73.208119,
  "country": "India",
  "State": "Gujarat"
},
{
  "_id": {
    "$oid": "667910e6ff420002d6dd3cb1"
  },
  "City": "Valparai",
  "Lat": 10.325163,
  "Long": 76.955299,
  "country": "India",
  "State": "Tamil Nadu "
},
{
  "_id": {
    "$oid": "667910e6ff420002d6dd3cb2"
  },
  "City": "Varanasi",
  "Lat": 25.31774,
  "Long": 83.005811,
  "country": "India",
  "State": "Uttar Pradesh"
},
{
  "_id": {
    "$oid": "667910e6ff420002d6dd3cb3"
  },
  "City": "Vellore",
  "Lat": 12.905769,
  "Long": 79.137104,
  "country": "India",
  "State": "Tamil Nadu "
},
{
  "_id": {
    "$oid": "667910e6ff420002d6dd3cb4"
  },
  "City": "Vishakhapatnam",
  "Lat": 17.704052,
  "Long": 83.297663,
  "country": "India",
  "State": "Andhra Pradesh"
},
{
  "_id": {
    "$oid": "667910e6ff420002d6dd3cb5"
  },
  "City": "Vizianagaram",
  "Lat": 18.11329,
  "Long": 83.397743,
  "country": "India",
  "State": "Andhra Pradesh"
},
{
  "_id": {
    "$oid": "667910e6ff420002d6dd3cb6"
  },
  "City": "Warangal",
  "Lat": 17.978423,
  "Long": 79.600209,
  "country": "India",
  "State": "Telangana"
},
{
  "_id": {
    "$oid": "667910e6ff420002d6dd3cb7"
  },
  "City": "Jorapokhar",
  "Lat": 23.7,
  "Long": 86.41267,
  "country": "India",
  "State": "Jharkhand"
},
{
  "_id": {
    "$oid": "667910e6ff420002d6dd3cb8"
  },
  "City": "Brajrajnagar",
  "Lat": 21.82,
  "Long": 83.92,
  "country": "India",
  "State": "Odisha"
},
{
  "_id": {
    "$oid": "667910e6ff420002d6dd3cb9"
  },
  "City": "Talcher",
  "Lat": 20.95,
  "Long": 85.23,
  "country": "India",
  "State": "Odisha"
}]